location,latitude,longitude,rainfall,river_level,humidity
Hyderabad,17.3850,78.4867,220,4.2,82
Vijayawada,16.5062,80.6480,180,3.8,75
Chennai,13.0827,80.2707,300,5.5,90
Mumbai,19.0760,72.8777,350,6.1,88
Bangalore,12.9716,77.5946,120,2.5,65
